[{"type": "FeatureCollection", "features": [{"geometry": {"type": "Point", "coordinates": [1.96459, 41.40857]}, "type": "Feature", "properties": {"name_ca": "Santa Maria i Sant Brici de la Palma", "name_es": null}}, {"geometry": {"type": "Point", "coordinates": [1.96459, 41.4086]}, "type": "Feature", "properties": {"name_ca": "Can Llopart", "name_es": null}}, {"geometry": {"type": "Point", "coordinates": [1.98095, 41.402]}, "type": "Feature", "properties": {"name_ca": "Can Mascar\u00f3 (la Palma de Cervell\u00f3)", "name_es": null}}, {"geometry": {"type": "Point", "coordinates": [1.97377, 41.4126]}, "type": "Feature", "properties": {"name_ca": "Can Pongem", "name_es": null}}, {"geometry": {"type": "Point", "coordinates": [1.96748, 41.411]}, "type": "Feature", "properties": {"name_ca": "Font del Marge", "name_es": null}}, {"geometry": {"type": "Point", "coordinates": [1.95823, 41.413]}, "type": "Feature", "properties": {"name_ca": "Can Via", "name_es": null}}, {"geometry": {"type": "Point", "coordinates": [1.9686826, 41.4129722]}, "type": "Feature", "properties": {"name_ca": "La Palma de Cervell\u00f3", "name_es": "La Palma de Cervell\u00f3"}}, {"geometry": {"type": "Point", "coordinates": [1.97875, 41.406111]}, "type": "Feature", "properties": {"name_ca": "Sant Joan del Pla", "name_es": null}}, {"geometry": {"type": "Point", "coordinates": [1.97377, 41.4126]}, "type": "Feature", "properties": {"name_ca": "Can Vidal (la Palma de Cervell\u00f3)", "name_es": null}}, {"geometry": {"type": "Point", "coordinates": [1.97198610758689, 41.4097873565382]}, "type": "Feature", "properties": {"shop": "trave", "craft": null, "name": "Camp-Vell"}}, {"geometry": {"type": "Point", "coordinates": [1.9698353, 41.4122169]}, "type": "Feature", "properties": {"shop": "computer", "craft": null, "name": "Sai"}}, {"geometry": {"type": "Point", "coordinates": [1.9679364, 41.4127958]}, "type": "Feature", "properties": {"shop": "bakery", "craft": null, "name": "Llu\u00eds Pascual"}}, {"geometry": {"type": "Point", "coordinates": [1.9825929, 41.4028944]}, "type": "Feature", "properties": {"shop": "car_repair", "craft": null, "name": "Automoci\u00f3 i manteniment"}}, {"geometry": {"type": "Point", "coordinates": [1.9678132, 41.4128841]}, "type": "Feature", "properties": {"shop": null, "craft": null, "name": "Tasti-ho"}}, {"geometry": {"type": "Point", "coordinates": [1.9663289, 41.4134602]}, "type": "Feature", "properties": {"shop": "herbalist", "craft": null, "name": "Dharma"}}, {"geometry": {"type": "Point", "coordinates": [1.9678085, 41.4126986]}, "type": "Feature", "properties": {"shop": "books", "craft": null, "name": "La Xaropa"}}, {"geometry": {"type": "Point", "coordinates": [1.9674073, 41.4131549]}, "type": "Feature", "properties": {"shop": "electrical_equipment", "craft": null, "name": "ABC"}}, {"geometry": {"type": "Point", "coordinates": [1.9683246, 41.4131787]}, "type": "Feature", "properties": {"shop": "beauty", "craft": null, "name": "Isabel Mall\u00e9n"}}, {"geometry": {"type": "Point", "coordinates": [1.9666263, 41.4135116]}, "type": "Feature", "properties": {"shop": "furniture", "craft": null, "name": "Fusteria Jordi Moreno"}}, {"geometry": {"type": "Point", "coordinates": [1.9652017, 41.4132525]}, "type": "Feature", "properties": {"shop": "car_repair", "craft": null, "name": "Enrique S\u00e1nchez"}}, {"geometry": {"type": "Point", "coordinates": [1.9707594, 41.4117419]}, "type": "Feature", "properties": {"shop": "garden_furniture", "craft": null, "name": "Global Jardineria"}}, {"geometry": {"type": "Point", "coordinates": [1.9691978, 41.4126669]}, "type": "Feature", "properties": {"shop": "pet", "craft": null, "name": "Nostra fauna"}}, {"geometry": {"type": "Point", "coordinates": [1.9714444, 41.4118662]}, "type": "Feature", "properties": {"shop": null, "craft": null, "name": "La Palmarenca"}}, {"geometry": {"type": "Point", "coordinates": [1.9802193, 41.4027396]}, "type": "Feature", "properties": {"shop": "paint", "craft": null, "name": "M\u00e9sKpintures"}}, {"geometry": {"type": "Point", "coordinates": [1.9682845, 41.4126279]}, "type": "Feature", "properties": {"shop": "greengrocer", "craft": null, "name": "Andr\u00e9s"}}, {"geometry": {"type": "Point", "coordinates": [1.9692505, 41.4125413]}, "type": "Feature", "properties": {"shop": null, "craft": null, "name": "Instal\u00b7lacions Ros i Olle"}}, {"geometry": {"type": "Point", "coordinates": [1.967906, 41.4132986]}, "type": "Feature", "properties": {"shop": "hairdresser", "craft": null, "name": "Angulo's"}}, {"geometry": {"type": "Point", "coordinates": [1.9681198, 41.412893]}, "type": "Feature", "properties": {"shop": "jewelry", "craft": null, "name": "Trini Martin"}}, {"geometry": {"type": "Point", "coordinates": [1.9659725, 41.4136707]}, "type": "Feature", "properties": {"shop": "supermarket", "craft": null, "name": "Condis"}}, {"geometry": {"type": "Point", "coordinates": [1.9693209, 41.4122225]}, "type": "Feature", "properties": {"shop": "hairdresser", "craft": null, "name": "Ra\u00fcl"}}, {"geometry": {"type": "Point", "coordinates": [1.9667482, 41.4131502]}, "type": "Feature", "properties": {"shop": "farm", "craft": null, "name": "Cal Anzi"}}, {"geometry": {"type": "Point", "coordinates": [1.964442, 41.4141628]}, "type": "Feature", "properties": {"shop": "furniture", "craft": null, "name": "Mobles Sant Josep"}}, {"geometry": {"type": "Point", "coordinates": [1.9683561, 41.4132242]}, "type": "Feature", "properties": {"shop": "dry_cleaning", "craft": null, "name": "Tintoreria"}}, {"geometry": {"type": "Point", "coordinates": [1.9668803, 41.4137991]}, "type": "Feature", "properties": {"shop": "greengrocer", "craft": null, "name": "La Parada"}}, {"geometry": {"type": "Point", "coordinates": [1.9693408, 41.4120868]}, "type": "Feature", "properties": {"shop": "tobacco", "craft": null, "name": "l'Estanc"}}, {"geometry": {"type": "Point", "coordinates": [1.9656348, 41.4137612]}, "type": "Feature", "properties": {"shop": "hairdresser", "craft": null, "name": "Tot imatge"}}, {"geometry": {"type": "Point", "coordinates": [1.9689491, 41.412358]}, "type": "Feature", "properties": {"shop": null, "craft": null, "name": "Calso"}}, {"geometry": {"type": "Point", "coordinates": [1.9693228, 41.412618]}, "type": "Feature", "properties": {"shop": "glaziery", "craft": null, "name": "Montseny"}}, {"geometry": {"type": "Point", "coordinates": [1.9711187, 41.4110296]}, "type": "Feature", "properties": {"shop": null, "craft": null, "name": "Miguel Ortu\u00f1o"}}, {"geometry": {"type": "Point", "coordinates": [1.9689201, 41.4122444]}, "type": "Feature", "properties": {"shop": "hairdresser", "craft": null, "name": "Pepa"}}, {"geometry": {"type": "Point", "coordinates": [1.9682127, 41.412657]}, "type": "Feature", "properties": {"shop": "doityourself", "craft": null, "name": "Travis"}}, {"geometry": {"type": "Point", "coordinates": [1.9686581, 41.4124764]}, "type": "Feature", "properties": {"shop": "supermarket", "craft": null, "name": "Mercavila"}}, {"geometry": {"type": "Point", "coordinates": [1.9684146, 41.4125751]}, "type": "Feature", "properties": {"shop": "electronics", "craft": null, "name": "Ollma"}}, {"geometry": {"type": "Point", "coordinates": [1.971045, 41.4112247]}, "type": "Feature", "properties": {"shop": null, "craft": null, "name": "Arpe"}}, {"geometry": {"type": "Point", "coordinates": [1.9687988, 41.4122923]}, "type": "Feature", "properties": {"shop": "video", "craft": null, "name": "Boogie video disc"}}, {"geometry": {"type": "Point", "coordinates": [1.97417515419313, 41.4066723962758]}, "type": "Feature", "properties": {"shop": "garden_centre", "craft": null, "name": "Horticultura Dot"}}, {"geometry": {"type": "Point", "coordinates": [1.9696865, 41.4123682]}, "type": "Feature", "properties": {"shop": "swimming_pool", "craft": null, "name": "Aigua Splai"}}, {"geometry": {"type": "Point", "coordinates": [1.9683887, 41.4133031]}, "type": "Feature", "properties": {"shop": null, "craft": null, "name": "Bernal Ferr\u00e9"}}, {"geometry": {"type": "Point", "coordinates": [1.95621741491825, 41.4136430759436]}, "type": "Feature", "properties": {"shop": null, "craft": null, "name": "Escola d'educaci\u00f3 canina El Caliu"}}, {"geometry": {"type": "Point", "coordinates": [1.9661391, 41.4135043]}, "type": "Feature", "properties": {"shop": "fabric", "craft": null, "name": "Laia"}}, {"geometry": {"type": "Point", "coordinates": [1.9694483, 41.4120393]}, "type": "Feature", "properties": {"shop": "convenience", "craft": null, "name": "Pr\u00f2xim Roca"}}, {"geometry": {"type": "Point", "coordinates": [1.9681711, 41.4131143]}, "type": "Feature", "properties": {"shop": "newsagent", "craft": null, "name": "L'\u00c0mfora"}}, {"geometry": {"type": "Point", "coordinates": [1.9749635, 41.4069337]}, "type": "Feature", "properties": {"shop": "garden_centre", "craft": null, "name": "Naturparc"}}]}]